{
  "source": "MMDA Pasig River Ferry Service",
  "operational": {
    "service_hours": {
      "start": "7:00 AM",
      "end": "6:30 PM",
      "start_minutes": 420,
      "end_minutes": 1110
    },
    "operating_days": [
      "Monday",
      "Tuesday",
      "Wednesday",
      "Thursday",
      "Friday",
      "Saturday"
    ],
    "closed_days": ["Sunday"],
    "fare": "Free for all passengers"
  },
  "stations": {
    "Pinagbuhatan": {
      "city": "Pasig City",
      "address": "Eusebio Avenue, Pinagbuhatan, Pasig City (near the Coast Guard Station at C6 Bridge)",
      "latitude": 14.5797,
      "longitude": 121.0576,
      "direction": "downstream",
      "departures": [
        "7:00 AM",
        "7:30 AM",
        "8:30 AM",
        "9:30 AM",
        "11:00 AM",
        "12:30 PM",
        "2:00 PM",
        "4:00 PM"
      ]
    },
    "San Joaquin": {
      "city": "Pasig City",
      "address": "San Bernardo Street, San Joaquin, Pasig City",
      "latitude": 14.5831,
      "longitude": 121.0643,
      "direction": "downstream",
      "departures": [
        "7:10 AM",
        "7:40 AM",
        "8:40 AM",
        "9:40 AM",
        "11:10 AM",
        "12:40 PM",
        "2:10 PM",
        "4:10 PM"
      ]
    },
    "Maybunga": {
      "city": "Pasig City",
      "address": "Maybunga, Pasig City",
      "latitude": 14.5876,
      "longitude": 121.0711,
      "direction": "downstream",
      "departures": [
        "7:12 AM",
        "7:42 AM",
        "8:42 AM",
        "9:42 AM",
        "11:12 AM",
        "12:42 PM",
        "2:12 PM",
        "4:12 PM"
      ]
    },
    "Kalawaan": {
      "city": "Pasig City",
      "address": "Kalawaan, Pasig City",
      "latitude": 14.5921,
      "longitude": 121.0779,
      "direction": "downstream",
      "departures": [
        "7:15 AM",
        "7:45 AM",
        "8:45 AM",
        "9:45 AM",
        "11:15 AM",
        "12:45 PM",
        "2:15 PM",
        "4:15 PM"
      ]
    },
    "Guadalupe": {
      "city": "Makati City",
      "address": "Guadalupe, Makati City",
      "latitude": 14.5671,
      "longitude": 121.0453,
      "direction": "downstream",
      "departures": [
        "7:00 AM",
        "7:30 AM",
        "8:30 AM",
        "9:30 AM",
        "10:30 AM",
        "11:30 AM",
        "12:30 PM",
        "1:30 PM",
        "2:30 PM",
        "3:30 PM",
        "4:30 PM"
      ]
    },
    "Valenzuela": {
      "city": "Makati City",
      "address": "A. Bonifacio Street, Valenzuela, Makati City",
      "latitude": 14.5619,
      "longitude": 121.0385,
      "direction": "downstream",
      "departures": [
        "7:08 AM",
        "7:38 AM",
        "8:38 AM",
        "9:38 AM",
        "10:38 AM",
        "11:38 AM",
        "12:38 PM",
        "1:38 PM",
        "2:38 PM",
        "3:38 PM",
        "4:38 PM"
      ]
    },
    "Hulo": {
      "city": "Mandaluyong City",
      "address": "Hulo, Mandaluyong City",
      "latitude": 14.5567,
      "longitude": 121.0317,
      "direction": "downstream",
      "departures": [
        "7:20 AM",
        "7:50 AM",
        "8:50 AM",
        "9:50 AM",
        "10:50 AM",
        "11:50 AM",
        "12:50 PM",
        "1:50 PM",
        "2:50 PM",
        "3:50 PM",
        "4:50 PM"
      ]
    },
    "Lambingan": {
      "city": "Manila City",
      "address": "Lambingan, Manila City",
      "latitude": 14.5521,
      "longitude": 121.0249,
      "direction": "downstream",
      "departures": [
        "7:30 AM",
        "8:00 AM",
        "9:00 AM",
        "10:00 AM",
        "11:00 AM",
        "12:00 PM",
        "1:00 PM",
        "2:00 PM",
        "3:00 PM",
        "4:00 PM",
        "5:00 PM"
      ]
    },
    "Sta. Ana": {
      "city": "Manila City",
      "address": "Sta. Ana, Manila City",
      "latitude": 14.5475,
      "longitude": 121.0181,
      "direction": "downstream",
      "departures": [
        "7:35 AM",
        "8:05 AM",
        "9:05 AM",
        "10:05 AM",
        "11:05 AM",
        "12:05 PM",
        "1:05 PM",
        "2:05 PM",
        "3:05 PM",
        "4:05 PM",
        "5:05 PM"
      ]
    },
    "PUP": {
      "city": "Manila City",
      "address": "Polytechnic University of the Philippines, Manila City",
      "latitude": 14.5429,
      "longitude": 121.0113,
      "direction": "downstream",
      "departures": [
        "7:40 AM",
        "8:10 AM",
        "9:10 AM",
        "10:10 AM",
        "11:10 AM",
        "12:10 PM",
        "1:10 PM",
        "2:10 PM",
        "3:10 PM",
        "4:10 PM",
        "5:10 PM"
      ]
    },
    "Lawton": {
      "city": "Manila City",
      "address": "Lawton, Manila City",
      "latitude": 14.5383,
      "longitude": 121.0045,
      "direction": "downstream",
      "departures": [
        "7:50 AM",
        "8:20 AM",
        "9:20 AM",
        "10:20 AM",
        "11:20 AM",
        "12:20 PM",
        "1:20 PM",
        "2:20 PM",
        "3:20 PM",
        "4:20 PM",
        "5:20 PM"
      ]
    },
    "Escolta": {
      "city": "Manila City",
      "address": "Escolta, Manila City",
      "latitude": 14.5337,
      "longitude": 120.9977,
      "direction": "upstream",
      "departures": [
        "8:30 AM",
        "9:00 AM",
        "10:00 AM",
        "11:00 AM",
        "12:00 PM",
        "1:00 PM",
        "2:00 PM",
        "3:00 PM",
        "4:00 PM",
        "5:00 PM",
        "5:30 PM",
        "6:30 PM"
      ]
    },
    "Quinta": {
      "city": "Manila City",
      "address": "Quinta, Manila City",
      "latitude": 14.5291,
      "longitude": 120.9909,
      "direction": "upstream",
      "departures": [
        "8:45 AM",
        "9:15 AM",
        "10:15 AM",
        "11:15 AM",
        "12:15 PM",
        "1:15 PM",
        "2:15 PM",
        "3:15 PM",
        "4:15 PM",
        "5:15 PM",
        "5:45 PM",
        "6:30 PM"
      ]
    }
  }
}
